[
    {
      "city": "Select City",
      "id": 0
    },
    {
      "id": 1,
      "city": "Asheville",
      "longitude":-82.47305878,
      "latitude": 35.5841465,
      "selected": false
    },
    {
      "id": 2,
      "city": "Cary",
      "longitude": -78.92162075,
      "latitude": 35.82779764,
      "selected": false

    },
    {
      "id": 3,
      "city": "Charlotte",
      "longitude": -80.85261321,
      "latitude": 35.31940292,
      "selected": false
    },
    {
      "id": 4,
      "city": "Concord",
      "longitude": -80.54470222,
      "latitude": 35.37685109,
      "selected": false
    },
    {
      "id": 5,
      "city": "Durham",
      "longitude": -78.88426792,
      "latitude": 36.02415855,
      "selected": false
    },
    {
      "id": 6,
      "city": "Fayetteville",
      "longitude": -78.87616459,
      "latitude": 35.05961166,
      "selected": false
    },
    {
      "id": 7,
      "city": "Gastonia",
      "longitude": -81.25143295,
      "latitude": 35.28950016,
      "selected": false
    },
    {
      "id": 8,
      "city": "Greensboro",
      "longitude": -79.67306043,
      "latitude": 36.05297353,
      "selected": false
    },
    {
      "id": 9,
      "city": "Greenville",
      "longitude": -77.37264295,
      "latitude": 35.6059645,
      "selected": false
    },
    {
      "id": 10,
      "city": "High Point",
      "longitude": -79.92493365,
      "latitude": 35.94846632,
      "selected": false
    },
    {
      "id": 11,
      "city": "Jacksonville",
      "longitude": -77.33773232,
      "latitude": 34.66561482,
      "selected": false
    },
    {
      "id": 12,
      "city": "Raleigh",
      "longitude": -78.66582735,
      "latitude": 35.78194175,
      "selected": false
    },
    {
      "id": 13,
      "city": "Wilmington",
      "longitude": -77.93616638,
      "latitude": 34.24208056,
      "selected": false
    },
    {
      "id": 14,
      "city": "Winston-Salem",
      "longitude": -80.36229574,
      "latitude": 36.16177358,
      "selected": false
    }
  ]